[
  {
    "site_id": "tva-clinch-river",
    "site_name": "Clinch River Site",
    "state": "TN",
    "lat": 35.9094,
    "lon": -84.3878,
    "vendor": "GE Hitachi",
    "reactor_model": "BWRX-300",
    "owner": "Tennessee Valley Authority",
    "offtaker": null,
    "module_count": 1,
    "capacity_mwe_total": 300.0,
    "phase": "nrc_engaged",
    "target_cod": 2032,
    "nrc_docket": "52-049",
    "source_url": "https://www.nrc.gov/reactors/new-reactors/smr/licensing-activities/clinch-river.html"
  },
  {
    "site_id": "dow-seadrift",
    "site_name": "Dow Seadrift",
    "state": "TX",
    "lat": 28.4203,
    "lon": -96.71,
    "vendor": "X-energy",
    "reactor_model": "Xe-100",
    "owner": "Dow Chemical",
    "offtaker": "Dow Chemical",
    "module_count": 4,
    "capacity_mwe_total": 320.0,
    "phase": "nrc_engaged",
    "target_cod": 2030,
    "nrc_docket": null,
    "source_url": "https://www.energy.gov/ne/articles/x-energy-and-dow-submit-construction-permit-application-advanced-nuclear"
  },
  {
    "site_id": "energy-northwest-xe100",
    "site_name": "Energy Northwest Xe-100",
    "state": "WA",
    "lat": 46.471,
    "lon": -119.332,
    "vendor": "X-energy",
    "reactor_model": "Xe-100",
    "owner": "Energy Northwest",
    "offtaker": "Amazon Web Services",
    "module_count": 12,
    "capacity_mwe_total": 960.0,
    "phase": "announced",
    "target_cod": 2032,
    "nrc_docket": null,
    "source_url": "https://www.energy-northwest.com/newsroom/Pages/X-Energy-Project.aspx"
  },
  {
    "site_id": "pacificorp-kemmerer",
    "site_name": "TerraPower Natrium Kemmerer",
    "state": "WY",
    "lat": 41.8276,
    "lon": -110.5366,
    "vendor": "TerraPower",
    "reactor_model": "Natrium",
    "owner": "PacifiCorp",
    "offtaker": "PacifiCorp",
    "module_count": 1,
    "capacity_mwe_total": 345.0,
    "phase": "under_construction",
    "target_cod": 2030,
    "nrc_docket": null,
    "source_url": "https://www.terrapower.com/our-work/natriumpower/"
  },
  {
    "site_id": "holtec-palisades",
    "site_name": "Holtec Palisades SMR-300",
    "state": "MI",
    "lat": 42.3239,
    "lon": -86.3151,
    "vendor": "Holtec",
    "reactor_model": "SMR-300",
    "owner": "Holtec International",
    "offtaker": null,
    "module_count": 2,
    "capacity_mwe_total": 600.0,
    "phase": "announced",
    "target_cod": 2030,
    "nrc_docket": null,
    "source_url": "https://holtecinternational.com/products-and-services/smr/"
  },
  {
    "site_id": "oklo-idaho",
    "site_name": "Oklo Aurora INL",
    "state": "ID",
    "lat": 43.5167,
    "lon": -112.9533,
    "vendor": "Oklo",
    "reactor_model": "Aurora",
    "owner": "Oklo Inc.",
    "offtaker": null,
    "module_count": 1,
    "capacity_mwe_total": 15.0,
    "phase": "nrc_engaged",
    "target_cod": 2027,
    "nrc_docket": "52-048",
    "source_url": "https://www.nrc.gov/reactors/new-reactors/smr/licensing-activities/aurora.html"
  },
  {
    "site_id": "kairos-hermes",
    "site_name": "Kairos Hermes",
    "state": "TN",
    "lat": 35.9233,
    "lon": -84.312,
    "vendor": "Kairos",
    "reactor_model": "KP-FHR",
    "owner": "Kairos Power",
    "offtaker": "Tennessee Valley Authority",
    "module_count": 1,
    "capacity_mwe_total": 35.0,
    "phase": "under_construction",
    "target_cod": 2027,
    "nrc_docket": "50-7513",
    "source_url": "https://www.nrc.gov/reactors/non-power/new-fac/kairos-hermes.html"
  },
  {
    "site_id": "last-energy-haskell",
    "site_name": "Last Energy Haskell County",
    "state": "TX",
    "lat": 33.1577,
    "lon": -99.7333,
    "vendor": "Last Energy",
    "reactor_model": "PWR-20",
    "owner": "Last Energy",
    "offtaker": null,
    "module_count": 4,
    "capacity_mwe_total": 80.0,
    "phase": "announced",
    "target_cod": 2027,
    "nrc_docket": null,
    "source_url": "https://www.lastenergy.com/news/last-energy-texas"
  },
  {
    "site_id": "ge-hitachi-darlington-style-ny",
    "site_name": "GE Hitachi BWRX-300 NY Pilot",
    "state": "NY",
    "lat": 43.523,
    "lon": -76.398,
    "vendor": "GE Hitachi",
    "reactor_model": "BWRX-300",
    "owner": "New York Power Authority",
    "offtaker": null,
    "module_count": 1,
    "capacity_mwe_total": 300.0,
    "phase": "announced",
    "target_cod": 2033,
    "nrc_docket": null,
    "source_url": "https://www.nypa.gov/news/press-releases"
  },
  {
    "site_id": "westinghouse-ap300-pilot",
    "site_name": "Westinghouse AP300 Pilot Site",
    "state": "VA",
    "lat": 38.061,
    "lon": -77.79,
    "vendor": "Westinghouse",
    "reactor_model": "AP300",
    "owner": "Dominion Energy",
    "offtaker": "Dominion Energy",
    "module_count": 1,
    "capacity_mwe_total": 300.0,
    "phase": "announced",
    "target_cod": 2032,
    "nrc_docket": null,
    "source_url": "https://www.westinghousenuclear.com/energy-systems/ap300-smr"
  }
]
